City_ID,City,Lat,Lng,Max Temp,Humidity,Cloudiness,Wind Speed,Country,Date
0,kodiak,57.79,-152.4072,11.73,94,100,0.0,US,1691648746
1,yellowknife,62.456,-114.3525,18.29,55,100,3.6,CA,1691648746
2,adamstown,-25.066,-130.1015,19.84,51,92,8.92,PN,1691648746
3,albany,42.6001,-73.9662,18.23,89,47,0.45,US,1691648630
4,hammerfest,70.6634,23.6821,22.25,68,0,0.0,NO,1691648747
5,avarua,-21.2078,-159.775,24.03,73,75,8.75,CK,1691648748
6,margaret river,-33.95,115.0667,13.47,68,100,1.89,AU,1691648748
7,invercargill,-46.4,168.35,5.57,75,31,0.96,NZ,1691648748
8,iskateley,67.6803,53.1512,17.02,60,0,3.04,RU,1691648749
9,flying fish cove,-10.4217,105.6791,26.82,73,75,5.66,CX,1691648749
10,preobrazheniye,42.9019,133.9064,19.33,95,100,6.84,RU,1691648750
11,wailua homesteads,22.0669,-159.378,26.44,80,75,8.75,US,1691648750
12,edinburgh of the seven seas,-37.0676,-12.3116,10.2,64,78,8.91,SH,1691648750
13,ushuaia,-54.8,-68.3,4.81,81,0,2.57,AR,1691648751
14,ouarzazat,30.9189,-6.8934,28.16,21,40,3.09,MA,1691648751
15,brazzaville,-4.2658,15.2832,22.17,88,75,2.06,CG,1691648752
16,puerto natales,-51.7236,-72.4875,0.76,97,89,1.45,CL,1691648752
17,bethel,41.3712,-73.414,20.92,84,0,2.06,US,1691648752
18,longyearbyen,78.2186,15.6401,11.91,54,0,1.54,SJ,1691648753
19,zakamensk,50.3741,103.2863,15.69,90,100,2.19,RU,1691648753
20,port elizabeth,-33.918,25.5701,14.16,94,0,5.14,ZA,1691648754
21,aasiaat,68.7098,-52.8699,2.66,93,92,5.25,GL,1691648754
22,kingston,17.997,-76.7936,29.53,86,20,1.54,JM,1691648694
23,port mathurin,-19.6833,63.4167,22.5,74,5,4.45,MU,1691648755
24,lazaro cardenas,17.9583,-102.2,27.58,81,100,0.52,MX,1691648755
25,ryazanskaya,44.9553,39.5889,26.81,69,52,1.5,RU,1691648756
26,san patricio,28.017,-97.5169,29.36,81,1,6.8,US,1691648553
27,carnarvon,-24.8667,113.6333,24.37,52,1,4.86,AU,1691648757
28,glendive,47.1053,-104.7125,20.79,83,75,5.66,US,1691648757
29,colonia,50.9333,6.95,14.9,78,0,1.03,DE,1691648162
30,palora,-1.7,-77.9333,16.18,96,39,1.74,EC,1691648758
31,grytviken,-54.2811,-36.5092,-5.56,90,94,1.53,GS,1691648758
32,whangarei,-35.7317,174.3239,9.53,86,47,2.43,NZ,1691648752
33,langley,49.083,-122.5859,18.62,73,75,3.6,CA,1691648672
34,puerto ayora,-0.7393,-90.3518,24.19,94,82,1.34,EC,1691648759
35,klyuchi,52.2667,79.1667,30.2,28,93,4.71,RU,1691648760
36,las palmas,28.4204,-14.0131,24.44,65,0,6.17,ES,1691648760
37,hithadhoo,-0.6,73.0833,27.63,73,50,3.28,MV,1691648760
38,fereydun kenar,36.6864,52.5225,30.85,49,0,2.29,IR,1691648761
39,dudinka,69.4058,86.1778,19.79,52,100,10.9,RU,1691648761
40,mil'kovo,55.6078,37.7956,20.73,60,58,3.31,RU,1691648762
41,port-aux-francais,-49.35,70.2167,4.3,86,92,11.49,TF,1691648762
42,cascais,38.6979,-9.4215,19.98,87,20,7.15,PT,1691648763
43,coxen hole,16.3244,-86.5366,28.6,84,20,3.09,HN,1691648763
44,atafu village,-8.5421,-172.5159,27.8,80,72,6.04,TK,1691648764
45,labrador city,52.9463,-66.9114,10.95,100,100,1.03,CA,1691648764
46,bilaspur,22.0833,82.15,33.7,46,68,4.12,IN,1691648764
47,bredasdorp,-34.5322,20.0403,10.71,79,0,2.3,ZA,1691648765
48,tiksi,71.6872,128.8694,21.01,38,18,2.32,RU,1691648766
49,yigo village,13.5361,144.8886,28.74,78,40,5.66,GU,1691648766
50,port lincoln,-34.7333,135.8667,13.82,61,53,3.78,AU,1691648767
51,lashkar gah,31.5938,64.3716,34.88,14,0,3.72,AF,1691648768
52,cheremukhovo,60.3484,59.9851,14.33,77,100,2.63,RU,1691648768
53,waitangi,-43.9535,-176.5597,8.79,68,4,3.17,NZ,1691648769
54,nelson bay,-32.7167,152.15,23.33,46,7,5.36,AU,1691648770
55,ilulissat,69.2167,-51.1,4.01,93,100,3.09,GL,1691648770
56,laguna,38.421,-121.4238,24.14,66,0,3.09,US,1691648772
57,riyadh,24.6877,46.7219,39.08,6,0,7.16,SA,1691648555
58,papatowai,-46.5619,169.4708,2.43,89,43,2.55,NZ,1691648773
59,tofol,5.3248,163.0078,28.37,76,66,2.67,FM,1691648774
60,walvis bay,-22.9575,14.5053,14.53,88,96,5.66,NA,1691648775
61,rio pardo,-29.9897,-52.3781,14.92,99,99,1.16,BR,1691648776
62,port alfred,-33.5906,26.891,15.66,88,0,0.45,ZA,1691648438
63,palmer,42.1584,-72.3287,20.37,82,0,0.0,US,1691648776
64,nova sintra,14.8667,-24.7167,22.74,73,55,4.43,CV,1691648777
65,al jumum,21.6169,39.6981,37.11,23,6,3.04,SA,1691648777
66,blackmans bay,-43.0167,147.3167,14.07,63,61,4.53,AU,1691648778
67,hawaiian paradise park,19.5933,-154.9731,25.73,90,100,6.17,US,1691648778
68,iqaluit,63.7506,-68.5145,4.85,93,100,2.24,CA,1691648779
69,saint-francois,46.4154,3.9054,16.69,82,0,2.57,FR,1691648779
70,petropavlovsk-kamchatsky,53.0452,158.6483,16.33,77,75,6.0,RU,1691648780
71,aldan,58.6031,125.3894,26.57,40,8,6.2,RU,1691648780
72,sao vicente,-23.9631,-46.3919,22.1,26,58,1.62,BR,1691648652
73,jamestown,42.097,-79.2353,21.77,92,20,2.57,US,1691648781
74,molina,-35.1167,-71.2833,10.21,89,100,5.14,CL,1691648781
75,fort bragg,35.139,-79.006,26.01,78,75,2.57,US,1691648782
76,san pedro,14.35,121.0167,32.4,73,20,8.23,PH,1691648232
77,olonkinbyen,70.9221,-8.7187,6.45,100,100,4.63,SJ,1691648783
78,punta arenas,-53.15,-70.9167,4.48,91,94,4.47,CL,1691648659
79,isafjordur,66.0755,-23.124,6.49,83,31,3.18,IS,1691648784
80,villa juarez,24.6536,-107.5411,27.47,78,81,2.12,MX,1691648784
81,trairi,-3.2778,-39.2689,23.86,87,18,3.77,BR,1691648785
82,bairnsdale,-37.8333,147.6167,13.4,64,87,5.73,AU,1691648785
83,san antonio de pale,-1.4014,5.6325,23.74,81,100,4.75,GQ,1691648786
84,stanley,54.868,-1.6985,17.06,92,75,1.03,GB,1691648786
85,ilebo,-4.3167,20.5833,25.13,64,74,0.8,CD,1691648787
86,west island,-12.1568,96.8225,27.99,69,75,6.69,CC,1691648787
87,cadale,2.7603,46.3222,26.11,74,60,8.26,SO,1691648788
88,whitehorse,60.7161,-135.0538,16.56,52,75,3.6,CA,1691648788
89,hamilton,39.1834,-84.5333,21.05,94,100,4.12,US,1691648677
90,vorgashor,67.5833,63.95,16.41,54,39,5.83,RU,1691648789
91,lompoc,34.6391,-120.4579,17.66,87,100,1.54,US,1691648529
92,dawei,14.0833,98.2,29.36,73,93,3.09,MM,1691648790
93,bilibino,68.0546,166.4372,15.37,45,98,2.6,RU,1691648790
94,chibougamau,49.9168,-74.3659,14.79,94,100,1.03,CA,1691648791
95,malango,-2.9627,119.9001,24.54,77,84,1.87,ID,1691648792
96,namtsy,62.7161,129.6658,24.16,31,100,4.23,RU,1691648792
97,polyarnyy,69.1989,33.4478,20.68,66,3,3.74,RU,1691648793
98,berezovyy,51.6667,135.7,22.2,51,92,1.82,RU,1691648793
99,espanola,35.9911,-106.0806,23.67,17,98,1.79,US,1691648509
100,kafue,-15.7691,28.1814,15.3,57,0,4.68,ZM,1691648794
101,chinde,26.8418,88.0763,23.76,83,86,2.17,NP,1691648795
102,port augusta,-32.5,137.7667,15.42,51,0,6.0,AU,1691648795
103,dogonbadan,30.3586,50.7981,41.05,17,20,1.03,IR,1691648796
104,nar'yan-mar,67.6713,53.087,17.12,60,0,3.06,RU,1691648796
105,howrah,22.5892,88.3103,30.0,79,75,3.09,IN,1691648654
106,college,64.8569,-147.8028,17.99,82,75,2.06,US,1691648797
107,tralee,52.2704,-9.7026,17.14,94,100,4.63,IE,1691648797
108,papao,-17.75,-149.55,23.82,72,58,7.67,PF,1691648798
109,vilyuchinsk,52.9306,158.4028,17.15,65,11,0.89,RU,1691648798
110,caleta de carquin,-11.0925,-77.6267,18.31,85,33,4.15,PE,1691648798
111,axim,4.8699,-2.2405,23.99,87,100,4.6,GH,1691648799
112,nola,40.922,14.5329,25.17,75,7,0.18,IT,1691648799
113,sao jose da coroa grande,-8.8978,-35.1478,23.08,79,16,3.43,BR,1691648800
114,ondangwa,-17.9167,15.95,16.0,36,66,1.54,NA,1691648800
115,maragogi,-9.0122,-35.2225,23.08,79,19,3.38,BR,1691648801
116,hermanus,-34.4187,19.2345,11.0,68,0,3.26,ZA,1691648801
117,new plymouth,-39.0667,174.0833,6.56,76,63,4.45,NZ,1691648802
118,kailua-kona,19.6406,-155.9956,27.98,74,40,3.09,US,1691648584
119,severo-yeniseyskiy,60.3725,93.0408,19.68,47,31,3.67,RU,1691648802
120,zouerate,22.7187,-12.4521,29.33,26,0,4.38,MR,1691648803
121,harper,4.375,-7.7169,24.15,83,100,4.87,LR,1691648803
122,afaahiti,-17.75,-149.2833,22.93,71,89,6.68,PF,1691648804
123,kapuskasing,49.4169,-82.4331,15.05,94,75,3.09,CA,1691648804
124,yelanskiy,56.8419,62.5014,15.81,92,100,2.61,RU,1691648804
125,ostrov,57.3439,28.3537,16.85,67,62,2.95,RU,1691648805
126,ceeldheer,3.8488,47.1806,27.37,65,84,9.02,SO,1691648805
127,hilo,19.7297,-155.09,25.85,83,100,6.17,US,1691648806
128,tura,25.5198,90.2201,29.2,77,94,3.13,IN,1691648806
129,rio do sul,-27.2142,-49.6431,16.33,100,100,0.24,BR,1691648806
130,ishinomaki,38.4167,141.3,29.0,75,0,7.97,JP,1691648807
131,lihue,21.9789,-159.3672,26.77,74,75,8.75,US,1691648807
132,haiku-pauwela,20.9219,-156.3051,25.01,74,40,5.14,US,1691648808
133,maymana,35.9214,64.7836,30.1,24,0,4.07,AF,1691648808
134,viqueque,-8.8673,126.3658,27.75,57,72,4.93,TL,1691648809
135,wenchang,30.904,118.4887,33.58,53,43,2.49,CN,1691648809
136,egilsstadir,65.2653,-14.3948,3.95,93,0,1.03,IS,1691648810
137,saint-pierre,-21.3393,55.4781,23.09,78,100,5.14,RE,1691648810
138,kavaratti,10.5669,72.642,27.8,77,93,8.01,IN,1691648810
139,al jubayl,27.0112,49.6583,36.11,41,2,2.37,SA,1691648533
140,arauca,7.0847,-70.7591,23.39,95,33,1.17,CO,1691648811
141,nurabad,34.0734,47.9725,29.4,20,0,2.81,IR,1691648812
142,al hudaydah,14.7978,42.9545,33.91,56,36,2.98,YE,1691648812
143,kerikeri,-35.2268,173.9474,11.06,82,25,0.45,NZ,1691648812
144,holualoa,19.6228,-155.9522,25.91,75,40,3.09,US,1691648813
145,gijang,35.2442,129.2139,25.85,87,100,7.89,KR,1691648813
146,fisterra,42.9049,-9.2629,20.97,93,37,6.77,ES,1691648814
147,ketchikan,55.3422,-131.6461,14.26,94,100,3.6,US,1691648814
148,al bayda',32.7627,21.7551,21.36,71,71,3.93,LY,1691648814
149,moosic,41.3534,-75.7383,19.47,97,20,1.54,US,1691648815
150,jinchang,38.4953,102.1739,28.28,43,87,8.84,CN,1691648816
151,dunedin,-45.8742,170.5036,5.45,62,69,2.24,NZ,1691648521
152,saint-philippe,-21.3585,55.7679,22.77,81,47,3.91,RE,1691648816
153,nuuk,64.1835,-51.7216,4.34,100,75,4.02,GL,1691648817
154,lubango,-14.9172,13.4925,15.29,35,0,1.3,AO,1691648817
155,keflavik,64.0049,-22.5624,11.95,71,75,5.14,IS,1691648818
156,anadyr,64.75,177.4833,14.28,67,40,4.0,RU,1691648686
157,vernon,50.2581,-119.2691,21.2,68,19,0.51,CA,1691648818
158,uturoa,-16.7333,-151.4333,25.17,67,74,7.37,PF,1691648819
159,touros,-5.1989,-35.4608,22.05,90,30,5.64,BR,1691648819
160,vila franca do campo,37.7167,-25.4333,23.23,94,100,5.3,PT,1691648820
161,georgetown,5.4112,100.3354,29.99,74,20,4.63,MY,1691648820
162,zhicheng,30.2956,111.5047,33.78,53,6,2.9,CN,1691648820
163,boiling springs,35.0465,-81.9818,23.25,82,0,1.54,US,1691648781
164,bandon,51.7469,-8.7425,15.77,98,93,5.13,IE,1691648702
165,la passe,45.5549,-0.8967,19.43,70,32,1.77,FR,1691648823
166,okhotsk,59.3833,143.3,16.8,68,10,4.0,RU,1691648823
167,sandnessjoen,66.0217,12.6316,14.29,74,13,4.72,NO,1691648823
168,nagqu,31.5,92.0,17.37,42,11,0.32,CN,1691648824
169,qaqortoq,60.7167,-46.0333,6.24,80,14,0.85,GL,1691648824
170,kitimat,54.0524,-128.6534,15.21,61,100,1.79,CA,1691648585
171,comodoro rivadavia,-45.8667,-67.5,12.92,62,0,2.06,AR,1691648636
172,lyantonde,-0.4031,31.1572,21.56,58,100,1.2,UG,1691648826
173,ust-nera,64.5667,143.2,22.33,37,5,1.03,RU,1691648826
174,dakhla,23.6848,-15.958,21.01,94,22,13.89,EH,1691648827
175,kataba,13.9833,44.3833,23.29,41,78,1.18,YE,1691648827
176,domerat,46.3606,2.5343,15.71,94,65,0.73,FR,1691648827
177,ubari,26.5921,12.7805,25.06,35,0,3.45,LY,1691648828
178,johvi,59.3592,27.4211,17.36,62,9,3.56,EE,1691648694
179,myeik,12.4333,98.6,28.47,79,86,4.5,MM,1691648829
180,san antonio oeste,-40.7319,-64.9477,12.24,51,100,6.46,AR,1691648829
181,la'ie,21.6477,-157.9253,26.98,72,6,8.35,US,1691648830
182,nemuro,43.3236,145.575,20.44,95,100,7.67,JP,1691648830
183,aykhal,66.0,111.5,24.14,50,54,6.32,RU,1691648831
184,itaituba,-4.2761,-55.9836,24.16,73,2,1.44,BR,1691648831
185,undurkhaan,47.3194,110.6556,21.41,60,100,3.57,MN,1691648832
186,south hedland,-20.4089,118.5983,31.96,15,2,3.6,AU,1691648832
187,baker city,44.7749,-117.8344,19.55,69,0,1.54,US,1691648765
188,ribeira grande,38.5167,-28.7,20.99,88,20,2.68,PT,1691648833
189,greymouth,-42.4667,171.2,3.48,85,38,2.1,NZ,1691648834
190,yermentau,51.6214,73.1069,23.54,43,100,4.69,KZ,1691648834
191,yulinshi,38.2906,109.7494,32.35,42,22,5.95,CN,1691648835
192,xucheng,20.35,110.1288,32.0,57,70,3.53,CN,1691648835
193,randers,56.4667,10.05,13.67,74,74,7.23,DK,1691648835
194,mount pearl,47.5166,-52.7813,12.75,96,100,9.77,CA,1691648836
195,st. john's,47.5649,-52.7093,13.21,96,100,9.77,CA,1691648815
196,loharu,28.45,75.8167,34.83,45,55,3.84,IN,1691648837
197,mawu,29.5923,107.3139,34.51,52,7,1.38,CN,1691648837
198,fallon,39.4735,-118.7774,23.84,23,20,3.09,US,1691648837
199,fairview,40.8126,-73.999,24.12,65,0,3.13,US,1691648654
200,kedrovyy,56.1667,91.8167,24.37,40,32,4.82,RU,1691648838
201,cabo san lucas,22.8909,-109.9124,28.67,78,27,5.25,MX,1691648734
202,ancud,-41.8697,-73.8203,10.46,90,99,7.95,CL,1691648596
203,tchollire,8.4022,14.1698,21.06,96,100,0.96,CM,1691648839
204,wanlaweyn,2.6185,44.8938,27.17,62,85,8.27,SO,1691648840
205,korla,41.7597,86.1469,34.8,17,0,5.08,CN,1691648840
206,ravar,31.2656,56.8055,31.46,17,1,3.86,IR,1691648841
207,utrik,11.2278,169.8474,28.38,72,57,5.5,MH,1691648841
208,talnakh,69.4865,88.3972,19.56,39,98,8.44,RU,1691648842
209,santiago de cao,-7.9589,-79.2392,21.07,88,83,3.6,PE,1691648842
210,tromso,69.6496,18.957,15.01,77,20,2.06,NO,1691648842
211,susuman,62.7833,148.1667,17.34,40,3,0.83,RU,1691648843
212,mahibadhoo,3.7833,72.9667,26.84,80,100,2.4,MV,1691648843
213,baikunthpur,23.25,82.55,30.25,60,81,5.16,IN,1691648244
214,percut,3.6253,98.864,30.12,65,82,2.48,ID,1691648844
215,vadso,70.0744,29.7487,23.49,68,0,2.57,NO,1691648845
216,akureyri,65.6835,-18.0878,6.96,87,100,2.06,IS,1691648845
217,minas de marcona,-15.2119,-75.1103,12.05,89,42,5.14,PE,1691648846
218,yuzhno-kurilsk,44.0306,145.8556,21.95,90,100,6.45,RU,1691648846
219,itoman,26.1247,127.6694,33.21,82,75,3.09,JP,1691648846
220,bandarbeyla,9.4942,50.8122,28.77,54,82,12.47,SO,1691648847
221,bel ombre,-4.6167,55.4167,27.91,74,40,4.63,SC,1691648847
222,nago,26.5881,127.9761,33.24,73,44,2.71,JP,1691648848
223,chonchi,-42.6128,-73.8092,9.51,93,99,3.62,CL,1691648848
224,floro,61.5996,5.0328,10.04,93,75,5.14,NO,1691648849
225,kyaikkami,16.08,97.5675,27.62,80,94,4.78,MM,1691648849
226,clevelandia,-26.3958,-52.4708,14.35,95,88,2.17,BR,1691648850
227,igarka,67.4667,86.5833,17.62,78,99,5.91,RU,1691648850
228,chester,40.1254,-75.8749,21.42,90,78,1.45,US,1691648851
229,bataszek,46.1937,18.7231,18.67,68,66,2.83,HU,1691648851
230,calama,-22.4667,-68.9333,3.27,30,0,8.75,CL,1691648852
231,alness,57.696,-4.2551,14.92,88,89,0.88,GB,1691648852
232,mount isa,-20.7333,139.5,27.87,23,6,3.6,AU,1691648852
233,machado,-21.6747,-45.9197,14.07,93,12,1.51,BR,1691648853
234,puerto baquerizo moreno,-0.9,-89.6,23.64,82,72,3.99,EC,1691648853
235,puerto aysen,-45.4,-72.7,6.07,100,99,0.96,CL,1691648854
236,thompson,55.7435,-97.8558,8.09,93,0,1.03,CA,1691648854
237,barreirinhas,-2.7469,-42.8264,25.2,82,34,4.21,BR,1691648854
238,trinidad,-14.8333,-64.9,24.37,57,0,1.09,BO,1691648855
239,brookings,44.3114,-96.7984,19.19,95,0,0.0,US,1691648712
240,kashgar,39.4547,75.9797,31.56,19,0,6.0,CN,1691648856
241,viana,-20.3903,-40.4961,22.87,97,85,0.75,BR,1691648856
242,cedar city,37.6775,-113.0619,21.54,49,20,3.6,US,1691648582
243,glace bay,46.1969,-59.957,18.48,97,100,3.09,CA,1691648857
244,badger,64.8,-147.5333,17.95,83,75,2.06,US,1691648857
245,happy valley-goose bay,53.3168,-60.3315,14.17,88,100,1.54,CA,1691648858
246,tamanrasset,22.785,5.5228,27.95,21,0,8.23,DZ,1691648859
247,la mira,18.035,-102.3266,26.9,83,100,0.81,MX,1691648859
248,mananjary,-21.2167,48.3333,21.09,84,13,1.16,MG,1691648859
249,kirensk,57.7853,108.1119,20.58,84,100,1.03,RU,1691648860
250,codrington,-38.2667,141.9667,11.86,75,99,4.95,AU,1691648861
251,nueva esperanza,15.2667,-87.6,26.79,98,79,0.5,HN,1691648861
252,constantia,44.1833,28.65,22.61,61,95,7.49,RO,1691648685
253,kulp,38.4972,41.0122,36.99,15,0,1.16,TR,1691648862
254,namibe,-15.1961,12.1522,15.73,89,21,3.87,AO,1691648862
255,ghanzi,-21.5667,21.7833,10.19,52,0,6.03,BW,1691648863
256,zinjibar,13.1287,45.3807,30.79,62,84,2.22,YE,1691648863
257,hobyo,5.3505,48.5268,27.33,66,42,9.76,SO,1691648863
258,rovaniemi,66.5,25.7167,18.67,94,75,5.66,FI,1691648864
259,yarmouth,41.7057,-70.2286,22.86,73,0,4.47,US,1691648864
260,hadibu,12.65,54.0333,27.13,73,99,11.18,YE,1691648864
261,genhe,50.7833,121.5167,26.78,35,69,1.44,CN,1691648865
262,tostado,-29.232,-61.7692,15.08,90,53,3.51,AR,1691648865
263,bardai,11.65,7.2333,21.14,93,98,4.95,NG,1691648866
264,palikir - national government center,6.9248,158.1611,30.47,79,75,3.6,FM,1691648866
265,broome,42.2506,-75.833,18.63,88,90,1.28,US,1691648867
266,lorengau,-2.0226,147.2712,27.45,82,99,7.31,PG,1691648867
267,fale old settlement,-9.3852,-171.2468,28.31,78,95,6.58,TK,1691648867
268,san andres,12.5847,-81.7006,29.01,84,40,4.12,CO,1691648868
269,enewetak,11.3474,162.3373,28.78,76,89,6.79,MH,1691648868
270,belyy yar,53.6039,91.3903,26.94,41,0,4.0,RU,1691648869
271,saldanha,-33.0117,17.9442,9.03,61,0,2.95,ZA,1691648869
272,nacala,-14.5428,40.6728,22.62,73,75,6.69,MZ,1691648869
273,mana,5.6592,-53.7767,24.66,90,12,3.88,GF,1691648870
274,kiruna,67.8557,20.2251,12.51,82,75,1.03,SE,1691648870
275,road town,18.4167,-64.6167,29.05,80,61,9.71,VG,1691648870
276,port saint john's,-31.6229,29.5448,17.01,81,20,3.87,ZA,1691648871
277,tulun,54.5611,100.5792,19.79,74,91,5.09,RU,1691648871
278,novyy urgal,51.0736,132.5642,28.25,33,18,0.23,RU,1691648872
279,adelaide,-34.9333,138.6,15.23,58,40,4.63,AU,1691648674
280,i-n-salah,27.1935,2.4607,31.5,16,0,4.72,DZ,1691648872
281,medina,24.4686,39.6142,38.24,7,0,3.09,SA,1691648817
282,la foa,-21.7108,165.8276,18.27,54,53,7.68,NC,1691648873
283,mejit,10.2753,170.8646,27.93,72,80,5.69,MH,1691648874
284,ta`u,-14.2336,-169.5144,27.63,75,33,6.48,AS,1691648874
285,yelizovo,53.1873,158.3805,17.08,77,75,6.0,RU,1691648874
286,sinabang,2.4803,96.3801,25.8,85,100,1.99,ID,1691648875
287,mirnyy,62.5353,113.9611,27.91,37,19,4.02,RU,1691648875
288,east london,-33.0153,27.9116,17.52,72,0,4.12,ZA,1691648876
289,las vegas,36.175,-115.1372,34.38,25,0,8.23,US,1691648779
290,ola,59.5833,151.2833,21.19,62,9,4.47,RU,1691648877
291,tidjikja,18.5564,-11.4271,28.65,38,22,7.01,MR,1691648877
292,ocean shores,46.9737,-124.1563,16.68,94,83,0.45,US,1691648878
293,udachny,66.4167,112.4,23.28,51,91,7.19,RU,1691648878
294,sarmiento,-45.5882,-69.07,9.24,72,99,6.43,AR,1691648878
295,gray,35.4167,-100.802,22.27,72,18,2.48,US,1691648879
296,rio grande,-32.035,-52.0986,15.53,97,100,5.55,BR,1691648879
297,loreto,22.2667,-101.9667,17.71,65,96,2.2,MX,1691648880
298,kudat,6.8837,116.8477,32.96,62,20,5.81,MY,1691648880
299,dhuusamarreeb,5.535,46.3861,27.19,55,46,9.87,SO,1691648880
300,yeosu,34.7546,127.6599,26.47,75,93,10.23,KR,1691648881
301,barro alto,-11.7608,-41.9117,15.36,86,0,3.29,BR,1691648881
302,kourou,5.1552,-52.6478,23.03,91,17,2.79,GF,1691648882
303,el granada,37.5027,-122.4694,17.19,91,100,5.66,US,1691648882
304,naze,28.3667,129.4833,29.51,78,65,4.87,JP,1691648882
305,pingliang,35.5392,106.6861,27.86,63,89,3.0,CN,1691648883
306,maksatikha,57.797,35.8825,17.58,70,0,2.33,RU,1691648883
307,dryden,49.7833,-92.7503,12.16,87,100,2.57,CA,1691648884
308,ladario,-19.0047,-57.6017,23.73,57,2,0.24,BR,1691648884
309,bikenibeu village,1.3673,173.1241,29.98,74,20,2.06,KI,1691648885
310,necochea,-38.5473,-58.7368,9.6,93,100,5.19,AR,1691648885
311,williams lake,52.1415,-122.1445,13.92,96,100,0.0,CA,1691648886
312,at taj,24.2049,23.2857,31.62,24,0,6.88,LY,1691648886
313,turpan,42.9333,89.1667,39.79,16,0,2.54,CN,1691648887
314,al aaroui,35.0118,-3.0045,24.14,94,40,1.54,MA,1691648887
315,inarajan village,13.2736,144.7484,29.66,91,100,9.28,GU,1691648887
316,taoudenni,22.6783,-3.9836,34.78,29,32,1.95,ML,1691648888
317,hacienda huancane,-15.8222,-70.8856,0.92,64,0,1.63,PE,1691648888
318,gadzhiyevo,69.2551,33.3362,20.91,65,3,3.5,RU,1691648889
319,nguigmi,14.2495,13.1092,26.45,70,100,4.19,NE,1691648890
320,lebu,-37.6167,-73.65,11.36,89,59,5.66,CL,1691648891
321,raduzhny,62.0961,77.475,12.56,90,100,5.92,RU,1691648891
322,yangjiang,21.85,111.9667,32.32,63,81,5.8,CN,1691648892
323,richards bay,-28.783,32.0377,18.68,75,100,2.05,ZA,1691648790
324,quibala,-10.7337,14.98,17.95,61,23,1.1,AO,1691648892
325,ar ruways,24.1103,52.7306,36.03,54,0,3.22,AE,1691648893
326,abepura,-2.6333,140.5833,32.45,55,20,3.09,ID,1691648893
327,gisborne,-38.6533,178.0042,10.36,74,98,2.79,NZ,1691648894
328,manado,1.487,124.8455,32.43,58,40,1.54,ID,1691648894
329,pavlodar,52.3,76.95,29.89,26,0,3.0,KZ,1691648895
330,masvingo,-20.0637,30.8277,12.37,90,72,3.23,ZW,1691648544
331,saipan,15.1355,145.701,27.39,100,40,7.2,MP,1691648895
332,armacao de buzios,-22.7469,-41.8817,20.03,86,65,7.71,BR,1691648896
333,camocim,-2.9022,-40.8411,23.57,90,32,5.19,BR,1691648608
334,bam,29.106,58.357,34.15,14,19,7.83,IR,1691648815
335,nizhnesortymskiy,62.4397,71.7603,10.22,81,44,8.82,RU,1691648897
336,rio gallegos,-51.6226,-69.2181,1.03,93,0,0.51,AR,1691648732
337,porto novo,6.4965,2.6036,25.9,88,99,3.09,BJ,1691648858
338,riacho de santana,-13.6092,-42.9389,19.48,62,1,3.79,BR,1691648898
339,kupang,-10.1667,123.5833,28.32,69,75,2.57,ID,1691648898
340,the pas,53.8251,-101.2541,9.01,87,0,1.03,CA,1691648899
341,hirara,24.8,125.2833,31.92,79,40,4.12,JP,1691648899
342,kolonia,50.9333,6.95,15.23,78,0,1.03,DE,1691648900
343,mananara,-16.1667,49.7667,22.86,75,43,2.89,MG,1691648901
344,guerrero negro,27.9769,-114.0611,21.29,86,4,6.05,MX,1691648902
345,bijelo polje,43.0337,19.747,15.55,81,100,1.39,ME,1691648902
346,gewane,10.1664,40.6453,28.0,50,92,7.22,ET,1691648903
347,chernyshevsk,52.5243,117.0174,17.43,85,100,1.51,RU,1691648903
348,tsiombe,-25.3,45.4833,20.59,67,51,5.68,MG,1691648904
349,magistral'nyy,56.1725,107.4458,16.92,98,100,1.97,RU,1691648904
350,ebon,4.582,168.6964,28.0,76,87,2.86,MH,1691648904
351,goz beida,13.95,20.55,23.82,81,83,4.17,TD,1691648905
352,acapulco de juarez,16.8634,-99.8901,28.9,79,100,1.54,MX,1691648905
353,darab,28.7519,54.5444,35.77,17,16,5.07,IR,1691648906
354,ugoofaaru,5.6667,73.0,28.1,78,100,6.04,MV,1691648906
355,magadan,59.5667,150.8,20.85,60,7,4.13,RU,1691648906
356,pariaman,-0.619,100.12,30.03,80,47,3.49,ID,1691648907
357,alofi,-19.0595,-169.9187,23.94,94,12,1.03,NU,1691648724
358,labuan,5.2767,115.2417,31.2,58,20,2.68,MY,1691648908
359,gillette,44.2911,-105.5022,17.51,59,0,2.85,US,1691648908
360,oamaru,-45.0784,170.9801,4.65,61,12,3.58,NZ,1691648908
361,bodo,67.28,14.405,16.64,72,0,8.75,NO,1691648909
362,revelstoke,50.9832,-118.2023,15.01,100,100,1.03,CA,1691648909
363,glen innes,-29.7333,151.7333,14.19,44,6,5.39,AU,1691648718
364,kondopoga,62.2057,34.2614,18.82,93,97,2.21,RU,1691648911
365,campbell river,50.0163,-125.2446,16.74,94,95,1.38,CA,1691648911
366,pokhara,28.2333,83.9833,26.75,89,82,1.32,NP,1691648524
367,siesta key,27.302,-82.5515,30.03,82,0,1.09,US,1691648912
368,pandan,14.0453,124.1694,31.62,63,91,2.35,PH,1691648912
369,grand baie,-20.0182,57.5802,25.26,64,3,4.47,MU,1691648881
370,kristiansund,63.1115,7.732,10.36,93,75,2.06,NO,1691648913
371,pedernales,18.0384,-71.744,28.28,74,14,0.89,DO,1691648914
372,berck-plage,50.407,1.5645,13.94,82,0,3.09,FR,1691648914
373,santiago,-33.4569,-70.6483,13.52,60,75,2.06,CL,1691648278
374,miles city,46.4083,-105.8406,22.54,49,0,3.09,US,1691648915
375,gazli,40.1333,63.45,36.16,18,0,6.07,UZ,1691648915
376,newnham,-41.3833,147.1333,13.53,50,48,7.2,AU,1691648916
377,bethanie,-26.4833,17.15,15.11,27,63,4.01,NA,1691648917
378,howard springs,-12.497,131.047,31.95,21,81,1.8,AU,1691648917
379,cidade velha,14.9167,-23.6167,25.26,73,20,5.14,CV,1691648917
380,inhambane,-23.865,35.3833,20.92,66,34,5.34,MZ,1691648918
381,alcester,52.2167,-1.8667,19.26,92,16,1.7,GB,1691648918
382,luanda,-8.8368,13.2343,19.0,88,40,0.0,AO,1691648919
383,posto fiscal rolim de moura,-13.0833,-62.2667,23.79,53,2,0.35,BR,1691648919
384,la sarre,48.8002,-79.1996,12.36,97,62,2.01,CA,1691648919
385,freetown,8.484,-13.2299,23.84,100,75,6.17,SL,1691648726
386,sao caetano de odivelas,-0.75,-48.02,23.35,94,54,2.69,BR,1691648921
387,addanki,15.8167,79.9833,36.81,37,74,3.85,IN,1691648921
388,machico,32.7,-16.7667,23.35,80,20,3.6,PT,1691648922
389,lata,40.1629,-8.3327,17.18,95,41,1.19,PT,1691648922
390,yeppoon,-23.1333,150.7333,22.88,63,11,4.54,AU,1691648922
391,sharypovo,55.5403,89.2008,24.15,43,46,6.62,RU,1691648923
392,ebolowa,2.9,11.15,20.25,96,99,0.9,CM,1691648923
393,klaksvik,62.2266,-6.589,9.51,71,52,0.96,FO,1691648924
394,alice springs,-23.7,133.8833,25.75,15,0,5.14,AU,1691648924
395,kenai,60.5544,-151.2583,13.05,94,100,2.06,US,1691648924
396,valdivia,-39.8142,-73.2459,10.05,98,89,1.51,CL,1691648925
397,tshikapa,-6.4167,20.8,25.98,36,34,1.05,CD,1691648925
398,harrismith,-28.2728,29.1295,6.61,81,0,0.86,ZA,1691648926
399,port hedland,-20.3167,118.5667,32.03,15,2,3.6,AU,1691648926
400,guatrache,-37.6678,-63.5302,12.3,62,100,6.73,AR,1691648927
401,xinpu,34.5997,119.1594,31.9,57,0,2.94,CN,1691648927
402,tshabong,-26.05,22.45,11.24,48,0,8.41,BW,1691648927
403,santa cruz,-17.8,-63.1667,21.7,88,0,5.66,BO,1691648928
404,kushk,33.2957,61.9522,32.07,16,0,14.46,AF,1691648928
405,shahba,32.8551,36.629,24.74,41,1,3.68,SY,1691648929
406,madingou,-4.1536,13.55,22.64,77,26,1.63,CG,1691648929
407,kuanda,56.3161,116.0806,19.74,73,100,3.31,RU,1691648930
408,verkhnevilyuysk,63.4453,120.3167,27.25,33,17,4.4,RU,1691648930
409,ouddorp,51.8117,3.9347,16.99,85,1,4.14,NL,1691648930
410,pechora,65.1472,57.2244,18.38,48,4,4.29,RU,1691648931
411,bani mazar,28.5036,30.8004,28.16,49,0,5.5,EG,1691648931
412,tolanaro,-25.0319,46.9987,20.74,81,54,4.32,MG,1691648932
413,kruisfontein,-34.0033,24.7314,13.64,70,3,3.01,ZA,1691648932
414,ahiri,19.4,80.0167,30.06,74,48,3.21,IN,1691648932
415,remire-montjoly,4.9167,-52.2667,23.02,100,0,0.0,GF,1691648933
416,lindsay,36.203,-119.0882,26.67,57,0,2.57,US,1691648933
417,nova vicosa,-17.8919,-39.3719,21.39,76,10,2.52,BR,1691648934
418,amarante do maranhao,-5.5667,-46.7422,21.53,77,5,1.93,BR,1691648934
419,garden city,42.3256,-83.331,22.97,78,100,6.17,US,1691648687
420,tymovskoye,50.8456,142.655,20.51,69,100,1.35,RU,1691648935
421,nadym,65.5333,72.5167,12.69,62,83,12.36,RU,1691648935
422,amalapuram,16.5833,82.0167,34.69,47,92,3.18,IN,1691648936
423,carbonear,47.7332,-53.2148,13.47,92,100,8.75,CA,1691648937
424,alliance,40.9153,-81.1059,20.36,95,100,2.3,US,1691648784
425,sherbakul',54.6316,72.3963,19.0,60,61,6.83,RU,1691648938
426,taylor,32.3001,-99.8337,28.7,51,0,2.06,US,1691648608
427,bengkulu,-3.8004,102.2655,28.75,73,28,4.13,ID,1691648938
428,novo aripuana,-5.1206,-60.3797,24.81,69,13,0.57,BR,1691648939
429,bang saphan,11.2126,99.5117,34.34,48,62,3.47,TH,1691648939
430,djambala,-2.5447,14.7533,20.6,74,51,1.62,CG,1691648940
431,hazard,37.2495,-83.1932,22.83,79,100,2.99,US,1691648654
432,verkhotur'ye,58.8627,60.8054,15.22,86,100,3.13,RU,1691648483
433,labytnangi,66.6572,66.4183,18.97,46,11,5.14,RU,1691648941
434,bratsk,56.1325,101.6142,25.27,42,100,4.03,RU,1691648941
435,coahuayana de hidalgo,18.7,-103.6583,25.19,74,82,2.0,MX,1691648942
436,tazovsky,67.4667,78.7,13.89,65,91,9.78,RU,1691648942
437,daltonganj,24.0333,84.0667,30.73,68,76,5.18,IN,1691648943
438,orcopampa,-15.2661,-72.3417,6.24,58,1,0.24,PE,1691648943
439,gargalianoi,37.0667,21.6333,24.64,64,0,0.41,GR,1691648944
440,puerto leguizamo,-0.1934,-74.7819,21.85,98,96,0.87,CO,1691648944
441,maceio,-9.6658,-35.7353,21.69,94,100,1.03,BR,1691648944
442,pursat,12.3333,103.6667,36.85,39,54,1.62,KH,1691648945
443,kashmor,28.4333,69.5833,36.26,41,40,4.01,PK,1691648945
444,arkhangel'sk,64.5401,40.5433,22.92,63,0,3.26,RU,1691648946
445,malagon,39.2139,-4.0005,25.35,40,1,2.08,ES,1691648946
446,kostomuksha,64.571,30.5767,15.7,93,90,4.1,RU,1691648947
447,dourbali,11.8091,15.8632,23.2,87,100,2.34,TD,1691648947
448,queenstown,-31.8976,26.8753,11.2,58,12,2.0,ZA,1691648948
449,ulaangom,49.9811,92.0667,23.71,38,11,3.9,MN,1691648948
450,smolensk,55.0,33.0,17.36,61,14,0.73,RU,1691648948
451,oranjemund,-28.55,16.4333,21.53,26,8,4.95,NA,1691648949
452,sao tome,0.3365,6.7273,22.02,94,40,1.54,ST,1691648949
453,antsohihy,-14.8796,47.9875,26.64,45,1,3.38,MG,1691648950
454,stonehaven,56.9637,-2.2118,13.72,99,2,1.01,GB,1691648950
455,pangody,65.85,74.4859,11.74,69,79,9.0,RU,1691648950
456,lautoka,-17.6167,177.4667,20.92,88,75,5.14,FJ,1691648951
457,ardakan,32.31,54.0175,32.98,17,0,4.92,IR,1691648951
458,leava,-14.3,-178.1667,27.52,76,57,4.22,WF,1691648952
459,greenland,43.0362,-70.8328,21.05,89,40,2.57,US,1691648952
460,nikolayevsk-on-amure,53.1406,140.73,20.49,51,82,3.54,RU,1691648952
461,east ballina,-28.8667,153.5833,23.22,59,2,7.35,AU,1691648953
462,harar,9.3094,42.1258,17.25,69,99,4.13,ET,1691648953
463,bandrele,-12.9067,45.1914,26.86,69,75,7.2,YT,1691648954
464,cartagena del chaira,1.3349,-74.8429,21.81,95,48,0.25,CO,1691648955
465,fairmont,39.4851,-80.1426,22.65,94,100,1.67,US,1691648955
466,krasnozerskoye,53.9828,79.2374,26.58,33,65,1.78,RU,1691648955
467,zag,46.9441,99.165,22.55,33,32,0.81,MN,1691648956
468,la cruz,23.9167,-106.9,25.8,82,70,1.88,MX,1691648956
469,khandud,36.9513,72.318,20.5,24,0,1.83,AF,1691648957
470,barra do bugres,-15.0725,-57.1811,22.94,39,0,1.58,BR,1691648935
471,loen,7.7601,168.2307,28.41,74,89,3.2,MH,1691648957
472,massakory,12.996,15.7293,24.09,84,100,3.01,TD,1691648958
473,sihanoukville,10.6093,103.5296,31.97,70,40,7.2,KH,1691648958
474,hunchun,42.8675,130.3581,20.48,99,100,0.38,CN,1691648960
475,valparaiso,-33.0393,-71.6273,12.8,82,75,1.54,CL,1691648960
476,hasaki,35.7333,140.8333,32.39,74,34,4.54,JP,1691648960
477,archidona,37.0965,-4.3887,25.51,45,3,0.77,ES,1691648961
478,belozersk,60.0326,37.7957,18.83,93,90,0.86,RU,1691648961
479,horta,38.5333,-28.6333,20.01,85,20,2.68,PT,1691648962
480,guane,22.2025,-84.0875,26.75,87,5,1.7,CU,1691648717
481,eureka,40.8021,-124.1637,17.18,92,60,0.89,US,1691648963
482,targu secuiesc,46.0,26.1333,17.7,54,100,0.43,RO,1691648963
483,vila velha,-20.3297,-40.2925,22.97,92,75,3.6,BR,1691648964
484,huilong,31.8111,121.655,30.42,66,11,6.16,CN,1691648964
485,tommot,58.9564,126.2925,28.52,46,17,3.71,RU,1691648965
486,leer,53.2316,7.461,15.52,96,18,2.19,DE,1691648966
487,al mindak,20.1588,41.2834,27.78,15,7,3.68,SA,1691648967
488,gotse delchev,41.5667,23.7333,17.99,70,100,1.75,BG,1691648814
489,belmonte,-15.8631,-38.8828,21.57,69,24,2.97,BR,1691648968
490,yol,32.1667,76.2,28.15,76,71,1.89,IN,1691648968
491,ndikinimeki,4.7667,10.8333,17.86,99,100,1.42,CM,1691648968
492,oulmes,33.4258,-6.0014,25.39,33,2,1.54,MA,1691648969
493,khash,28.2211,61.2158,32.34,14,0,0.85,IR,1691648969
494,orangeville,43.9168,-80.0997,19.64,74,100,4.98,CA,1691648809
495,crane,31.3974,-102.3501,30.87,28,6,4.66,US,1691648970
496,christchurch,-43.5333,172.6333,6.11,77,75,6.17,NZ,1691648971
497,doctor arroyo,23.6667,-100.1833,21.51,63,34,3.76,MX,1691648971
498,flin flon,54.7682,-101.865,10.98,62,56,2.06,CA,1691648629
499,polovinnoye,54.7914,65.9864,22.35,56,79,5.5,RU,1691648972
500,dedza,-14.3779,34.3332,12.52,69,11,2.22,MW,1691648972
501,balboa,2.0396,-77.2168,16.01,90,40,0.49,CO,1691648972
502,waingapu,-9.6567,120.2641,28.33,54,17,6.02,ID,1691648973
503,bukama,-9.2,25.85,23.86,33,34,1.67,CD,1691648973
504,puerto deseado,-47.7503,-65.8938,9.09,83,100,3.43,AR,1691648974
505,douentza,14.9951,-2.9517,27.12,67,79,2.91,ML,1691648974
506,ormara,25.2088,64.6357,27.7,81,89,7.57,PK,1691648974
507,kilinochchi,9.3961,80.3982,33.93,50,96,4.2,LK,1691648975
508,mogocha,53.7333,119.7667,25.55,38,100,3.36,RU,1691648975
509,kaihua,23.3687,104.28,26.25,76,98,2.92,CN,1691648976
510,island harbour,50.724,-1.2758,17.21,95,0,3.58,GB,1691648976
511,fortuna foothills,32.6578,-114.4119,36.05,32,75,4.12,US,1691648976
512,nyandoma,61.669,40.1991,22.31,63,0,2.71,RU,1691648977
513,praia da vitoria,38.7333,-27.0667,22.14,94,75,2.15,PT,1691648977
514,jinghong,21.991,100.7341,30.91,67,93,1.28,CN,1691648978
515,ardabil,38.2498,48.2933,25.75,36,0,0.0,IR,1691648978
516,nabire,-3.3667,135.4833,30.37,60,23,2.69,ID,1691648978
517,khalkhal,37.6189,48.5258,24.77,22,0,1.47,IR,1691648979
518,kiomboi,-4.2667,34.3667,19.04,51,2,4.09,TZ,1691648979
519,coquimbo,-29.9533,-71.3436,12.85,100,40,2.06,CL,1691648980
520,independence,39.0911,-94.4155,22.44,94,0,1.54,US,1691648683
521,emerald,-23.5333,148.1667,24.08,34,0,2.18,AU,1691648980
522,tselinnoye,53.0833,85.6667,27.97,30,9,4.13,RU,1691648981
523,rongelap,11.1635,166.8941,28.62,74,30,4.39,MH,1691648981
524,cosala,24.4125,-106.6908,22.47,89,97,1.31,MX,1691648982
525,mirny,62.5353,113.9611,27.91,37,19,4.02,RU,1691648982
526,bom jesus do itabapoana,-21.1339,-41.6797,19.91,93,100,1.06,BR,1691648982
527,awjilah,29.1081,21.2869,26.04,54,0,4.99,LY,1691648983
528,mpulungu,-8.7623,31.1141,22.9,49,0,5.73,ZM,1691648983
529,selfoss,63.9331,-20.9971,10.02,67,99,3.66,IS,1691648984
530,shahrud,36.4182,54.9763,28.03,16,0,2.75,IR,1691648984
531,wehr,47.6298,7.9042,18.24,84,1,0.87,DE,1691648984
532,kyren,51.6828,102.1408,19.54,72,96,0.56,RU,1691648985
533,luorong,24.4058,109.6086,34.0,59,21,0.67,CN,1691648985
534,enriquillo,17.9,-71.2333,26.94,84,76,3.79,DO,1691648986
535,merizo village,13.2658,144.6691,29.43,91,100,9.6,GU,1691648986
536,neyriz,29.1988,54.3278,31.42,16,40,6.47,IR,1691648986
537,yanchep,-31.55,115.6833,13.3,73,100,3.06,AU,1691648987
538,kertih,4.5141,103.4483,32.01,66,40,1.03,MY,1691648987
539,mogadishu,2.0371,45.3438,26.93,83,75,7.72,SO,1691648988
540,acarau,-2.8856,-40.12,24.26,87,29,5.28,BR,1691648988
541,ghadamis,30.1337,9.5007,27.89,24,0,3.81,LY,1691648988
542,paveh,35.0434,46.3565,32.05,19,0,1.88,IR,1691648989
543,ankang,32.68,109.0172,33.77,57,35,2.26,CN,1691648989
544,bryne,58.7354,5.6477,11.1,92,75,4.63,NO,1691648990
545,argo,37.6333,22.7333,26.55,54,0,0.82,GR,1691648990
546,tselina,46.5338,41.0328,28.58,48,59,3.54,RU,1691648991
547,ginir,7.1333,40.7,18.34,62,46,3.91,ET,1691648991
548,muroran,42.3172,140.9881,23.23,94,86,6.7,JP,1691648992
549,urengoy,65.9667,78.3667,14.17,71,99,9.81,RU,1691648992
550,arraial do cabo,-22.9661,-42.0278,20.77,85,28,10.02,BR,1691648993
551,ukhta,63.5671,53.6835,21.14,57,55,2.79,RU,1691648993
552,cowansville,45.2001,-72.7491,19.54,95,10,1.54,CA,1691648792
553,illela,13.7292,5.2975,25.36,79,73,4.97,NG,1691648994
554,mossel bay,-34.1831,22.146,14.96,66,0,2.24,ZA,1691648994
555,krapivinskiy,54.9992,86.8133,22.57,56,87,3.71,RU,1691648995
556,marquette,46.5333,-87.6335,15.98,78,66,1.34,US,1691648995
557,al jawf,29.5,38.75,31.01,23,0,2.49,SA,1691648995
558,mulanje,-16.0316,35.5,17.94,75,38,3.23,MW,1691648996
559,panama city beach,30.1766,-85.8055,30.05,82,0,1.79,US,1691648831
560,vorkuta,67.5,64.0,16.68,53,38,6.09,RU,1691648997
561,paramonga,-10.6667,-77.8333,18.51,85,51,3.62,PE,1691648997
562,ecija,37.5422,-5.0826,24.88,54,0,1.55,ES,1691648997
563,santa ines,-3.6667,-45.38,22.09,99,64,1.02,BR,1691648998
564,manokwari,-0.8667,134.0833,27.9,75,88,2.32,ID,1691648998
565,bubaque,11.2833,-15.8333,26.14,84,100,4.14,GW,1691648999
566,neral,19.0333,73.3167,28.79,69,70,4.91,IN,1691648999
567,pisco,-13.7,-76.2167,18.03,82,100,1.54,PE,1691648999
568,gerash,27.6652,54.1371,35.08,23,8,0.65,IR,1691649000
569,rasos,54.669,25.2986,14.97,88,75,2.06,LT,1691649000
570,serov,59.6033,60.5787,14.19,83,100,2.74,RU,1691649001
571,mount zion,39.7714,-88.8742,18.96,100,75,1.54,US,1691648976
572,fangshan,39.6983,115.9925,31.0,67,71,3.82,CN,1691649002
